stop_id,stop_name,stop_lat,stop_lon
8005644,St Georgen(Schwarzw),48.123814,8.341953
8005661,Stadtallendorf,50.825432,9.015281
8005662,Stadthagen,52.332833,9.189429
8300580,Castiglione del Lago,43.122854,12.032484
8601645,Naestved st,55.231872,11.766924
8300601,Lonigo,45.413252,11.34506
8002570,Hammerau,47.795878,12.946129
8300615,Vernio-Montepiano-Cantagallo,44.043646,11.152368
8300556,Abano Terme,45.355262,11.811565
8300618,Camucia-Cortona,43.261692,11.970889
8004669,Oldenburg(Holst),54.283825,10.882835
8300628,Codroipo,45.96572,12.976728
8007768,Norddeich Mole,53.624313,7.158802
8300633,Susegana,45.821272,12.258697
8300634,Spresiano,45.777791,12.266913
8507483,Spiez,46.686394,7.680095
8300636,Mogliano Veneto,45.561906,12.232835
8300638,S.Stino di Livenza,45.721006,12.681999
8100197,Feldkirch,47.240974,9.604102
8003680,Limburg Süd,50.382498,8.096107
8601699,Noerreport st,55.683517,12.571863
8507492,Interlaken Ost,46.690691,7.868977
8507493,Interlaken West,46.682627,7.851439
8700011,Paris Est,48.876975,2.35912
5501629,Hegyeshalom(Gr),47.938492,17.095451
8003701,Lingen(Ems),52.519863,7.321731
8700023,Strasbourg,48.585338,7.734067
8003708,Linz(Rhein),50.569338,7.27603
8503424,Schaffhausen,47.698921,8.632898
8300682,Legnago,45.18907,11.304681
8601739,Nyborg st,55.31407,10.802921
8601745,Nykoebing F st,54.766833,11.87777
8073368,Köln Messe/Deutz Gl.11-12,50.941716,6.974065
8100001,Kufstein,47.583077,12.165551
8100002,Salzburg Hbf,47.813048,13.04582
8100003,Wien Westbahnhof,48.196914,16.337247
8100004,Wien Hbf (Autoreisezuganlage),48.176626,16.392872
8100008,St.Pölten Hbf,48.208304,15.624672
8100012,Amstetten NÖ,48.121603,14.878109
8100013,Linz Hbf,48.290177,14.292129
8100014,Wels Hbf,48.166081,14.02657
8101917,Salzburg Süd,47.770223,13.078486
8011956,Jena Paradies,50.924853,11.587464
8005321,Scharbeutz,54.018742,10.745759
8100040,Hallein,47.685167,13.099431
8100041,Golling-Abtenau,47.600579,13.164082
8100042,Bischofshofen,47.417855,13.219887
8100043,St. Johann im Pongau,47.348377,13.19496
8100044,Schwarzach-St.Veit,47.318533,13.154463
8503504,Baden(CH),47.476465,8.307408
8100049,Saalfelden,47.426853,12.829764
8100052,Hochfilzen,47.467709,12.626527
8100053,Fieberbrunn,47.491135,12.52894
8100054,St. Johann in Tirol,47.519622,12.430778
8001751,Ellwangen,48.964117,10.129683
8100057,Kirchberg in Tirol,47.448922,12.3091
8100058,Westendorf in Tirol,47.44111,12.222902
8100059,Hopfgarten im Brixental,47.455349,12.149181
8100060,Telfs-Pfaffenhofen,47.300708,11.078872
8100061,Ötztal,47.238484,10.859113
8100062,Imst-Pitztal,47.219077,10.761669
8100063,Landeck-Zams,47.148242,10.578388
8100064,St. Anton am Arlberg,47.127566,10.266993
8100065,Langen am Arlberg,47.131719,10.12037
8100067,Bludenz,47.154723,9.814566
8100070,Leoben Hbf,47.3866,15.089607
8001767,Emden Außenhafen,53.34447,7.186174
8001768,Emden Hbf,53.369038,7.195172
8001774,Emmerich(Gr),51.901261,6.137358
8100079,Krumpendorf/Wörthersee,46.626337,14.22151
8100080,Pörtschach am Wörther See,46.636198,14.146234
8100081,Velden am Wörther See,46.620053,14.044836
8005874,Timmendorferstrand,53.99421,10.762272
8100085,Klagenfurt Hbf,46.615586,14.313568
8100090,Bregenz,47.503001,9.739623
8001787,Bad Endorf,47.905061,12.301558
8100092,Spittal-Millstättersee,46.795703,13.487415
8100093,Mallnitz-Obervellach,46.981671,13.176424
8100095,Bad Gastein,47.111745,13.131999
8100097,Bad Hofgastein,47.195714,13.100941
8100098,Dorfgastein,47.238673,13.103063
8100099,Wörgl Hbf,47.4918,12.060584
8100102,Jenbach,47.388451,11.778457
8100108,Innsbruck Hbf,47.263277,11.401
8005902,Triberg,48.140003,8.236806
8100113,Seefeld in Tirol,47.328727,11.189484
8010004,Angermünde,53.015222,13.996357
8601878,Oesterport st,55.692704,12.587612
8100122,Dornbirn,47.417693,9.738805
8700188,Longueau,49.863613,2.352512
8010018,Bad Kleinen,53.766972,11.466927
8100131,Liezen,47.562707,14.241888
8100132,Stainach-Irdning,47.529195,14.106753
8010022,Bad Schandau,50.918839,14.139321
8005927,Tutzing,47.907138,11.272886
8100137,Schladming,47.393827,13.678148
8100138,Radstadt,47.384235,13.467809
8601899,Padborg st,54.824247,9.358804
8010033,Bergen auf Rügen,54.420497,13.41782
8100147,Villach Hbf,46.618624,13.848538
8001844,Erlangen,49.595896,11.001906
8100150,Selzthal,47.550239,14.31284
8010050,Bitterfeld,51.622856,12.316848
8006369,Westerland(Sylt),54.90684,8.310922
8010060,Brandenburg Hbf,52.400558,12.566137
8100173,Graz Hbf,47.072301,15.416437
8010066,Bützow,53.837115,11.99819
8010073,Cottbus,51.750952,14.324158
8010077,Dessau Hbf,51.839865,12.234948
8010085,Dresden Hbf,51.040562,13.732038
8010089,Dresden-Neustadt,51.065902,13.740704
8010093,Eberswalde Hbf,52.834018,13.797057
8700271,Forbach(F),49.189215,6.900254
8098160,Berlin Hbf (tief),52.525589,13.369548
8010097,Eisenach,50.976918,10.331985
8010101,Erfurt Hbf,50.972549,11.038501
8300919,S.Bonifacio,45.402752,11.274441
8601979,Ringsted st,55.43804,11.786152
8001920,Esslingen(Neckar),48.738811,9.300077
8010113,Frankfurt(Oder),52.33642,14.546497
8601988,Roedby,54.655718,11.357466
8003978,Meppen,52.696024,7.298018
8601996,Roedekro st,55.069689,9.332753
8602350,Soroe st,55.419019,11.568793
8012183,Leipzig/Halle Flughafen,51.42334,12.223423
8010136,Gotha,50.939074,10.71257
5603738,Kuty(Gr),48.711367,16.999905
8010139,Greifswald,54.092921,13.370258
8098205,Leipzig Hbf (tief),51.345692,12.380429
5603743,Szob(Gr),47.824896,18.84477
5603745,Sturovo,47.800121,18.679917
8602756,Vejle st,55.706359,9.536871
8006053,Vaihingen(Enz),48.948116,8.957633
8004009,Metzingen(Württ),48.539727,9.290153
8602026,Roskilde st,55.639012,12.088855
8002021,Forbach(fr),49.214089,6.94431
8010159,Halle(Saale)Hbf,51.477509,11.987088
8011849,Heilbad Heiligenstadt,51.377064,10.123849
8006076,Verden(Aller),52.920818,9.237854
7900001,Jesenice(SL),46.43635,14.053304
8300996,Bologna San Ruffillo,44.462723,11.373116
8301002,Buttapietra,45.338794,10.988135
8001995,Fischen,47.45659,10.271712
8004044,Mittenwald(Gr),47.39807,11.267439
8010193,Königs Wusterhausen,52.296634,13.631476
8010195,Köthen,51.751932,11.989353
8100309,Stadt Rottenmann,47.527227,14.367171
8098262,München Hbf Gl.5-10,48.140093,11.555372
8002007,Flensburg(Gr),54.80635,9.42554
8010203,Leinefelde,51.38875,10.329297
8010205,Leipzig Hbf,51.346546,12.383333
8700386,Calais Ville,50.953402,1.850177
5100005,Bydgoszcz Glowna,53.135111,17.99164
8010216,Ludwigslust,53.334672,11.494488
8010217,Lübben(Spreewald),51.939735,13.877178
5100010,Gdynia Glowna,54.520843,18.529554
8010220,Lübbenau(Spreewald),51.862167,13.960903
5100013,Gniezno,52.529652,17.602182
8010222,Lutherstadt Wittenberg Hbf,51.867812,12.662286
5100015,Inowroclaw,52.804947,18.244057
8010224,Magdeburg Hbf,52.130351,11.62689
8002041,Frankfurt(Main)Süd,50.099364,8.686456
5100026,Konin,52.231399,18.253333
8500309,Brugg AG,47.480851,8.208832
5100032,Kutno,52.226958,19.348615
8000001,Aachen Hbf,50.767802,6.091495
8000002,Aalen Hbf,48.841009,10.09627
8000004,Altenbeken,51.766432,8.943323
8000008,Kehl(Gr),48.575648,7.801117
8000009,Ansbach,49.29803,10.578236
8000010,Aschaffenburg Hbf,49.980554,9.143692
8000013,Augsburg Hbf,48.365444,10.885568
8000014,Aulendorf,47.953055,9.64405
8010255,Berlin Ostbahnhof,52.510972,13.434567
8010256,Nordhausen,51.492917,10.789248
8000020,Bad Hersfeld,50.869632,9.716179
8600087,Aarhus,56.150075,10.204995
5100056,Sopot,54.440165,18.56232
8000025,Bamberg,49.900757,10.899492
8000026,Basel Bad Bf,47.567292,7.607804
8004124,Müllheim(Baden),47.80974,7.599327
5100061,Tczew,54.097317,18.790151
8000031,Bensheim,49.68133,8.616717
5100065,Warszawa Centralna,52.228864,21.003233
5100066,Warszawa Wschodnia,52.251544,21.052332
5100067,Warszawa Zachodnia,52.219974,20.965244
8000036,Bielefeld Hbf,52.029258,8.532722
5100071,Zbaszynek,52.242509,15.818093
8000041,Bochum Hbf,51.478606,7.223273
8010282,Prenzlau,53.321611,13.866535
5100075,Ilawa Glowna,53.582253,19.573849
8000044,Bonn Hbf,50.732007,7.097136
8000045,Boppard Hbf,50.231416,7.586104
5100081,Poznan Gl.,52.401996,16.910866
5100082,Rzepin,52.350218,14.815076
8004147,München-Feldmoching,48.213814,11.541322
5100084,Terespol,52.074142,23.601223
8000055,Bruchsal,49.124619,8.589651
8000057,Buchloe,48.033724,10.71622
8000058,Büchen,53.474976,10.623299
8000059,Bünde(Westf),52.202076,8.573875
8004158,München-Pasing,48.149856,11.461875
8602175,Skanderborg st,56.043562,9.924495
8000064,Celle,52.621171,10.062704
8000067,Crailsheim,49.137869,10.064322
8000068,Darmstadt Hbf,49.872503,8.629635
8010309,Saalfeld(Saale),50.650313,11.374986
8000070,Delmenhorst,53.052788,8.629761
8010312,Sangerhausen,51.479892,11.294514
8000073,Singen(Hohentwiel),47.758438,8.840378
8000076,Soest,51.578422,8.104593
8000077,Donaueschingen,47.947787,8.498923
8000078,Donauwörth,48.714028,10.771441
8000079,Puttgarden(MS),54.502047,11.227904
8000080,Dortmund Hbf,51.517898,7.459293
8000082,Düsseldorf Flughafen,51.292008,6.786837
8000084,Düren,50.809512,6.482454
8000085,Düsseldorf Hbf,51.21996,6.794316
8000086,Duisburg Hbf,51.429786,6.775906
8000087,Solingen Hbf,51.160766,7.004187
8004185,Murnau,47.682264,11.19263
8000091,Steinach(b Rothenburg ob der Tauber),49.45322,10.273537
8000093,Elze(Han),52.120148,9.746895
8010334,Stendal,52.594725,11.854407
8000095,Straubing,48.876975,12.574093
8000096,Stuttgart Hbf,48.784081,9.181636
8010338,Stralsund Hbf,54.308626,13.077318
8000103,Flensburg,54.774043,9.436525
8000105,Frankfurt(Main)Hbf,50.107149,8.663785
8000107,Freiburg(Breisgau) Hbf,47.997695,7.841173
8000108,Freilassing,47.836914,12.977196
8301330,Ceggia,45.688313,12.633979
8000111,Friedberg(Hess),50.332607,8.762055
8000112,Friedrichshafen Stadt,47.65322,9.473902
8000114,Fürth(Bay)Hbf,49.469706,10.989987
8000115,Fulda,50.554722,9.68398
8000116,Traunstein,47.869725,12.638797
8000118,Gelsenkirchen Hbf,51.5049,7.102458
8000119,Geltendorf,48.105773,11.037737
8010361,Waren(Müritz),53.521513,12.680678
8000122,Treuchtlingen,48.961267,10.908158
8000124,Gießen,50.579056,8.661466
8010366,Weimar,50.99149,11.326462
8000127,Göppingen,48.700022,9.651969
8006272,Weil am Rhein,47.593972,7.608415
8000129,Treysa,50.910659,9.185672
8602254,Slagelse st,55.407548,11.348054
8000139,Günzburg,48.460334,10.278652
8000141,Tübingen Hbf,48.515807,9.055409
8000142,Hagen Hbf,51.362744,7.460246
8506000,Winterthur,47.500511,8.723482
8000147,Hamburg-Harburg,53.455909,9.991698
8000149,Hamm(Westf),51.678077,7.807823
8000150,Hanau Hbf,50.120956,8.929003
8000151,Bad Bentheim(Gr),52.309111,7.039758
8000152,Hannover Hbf,52.376763,9.741016
8000153,Weener(Gr),53.188076,7.214068
8000155,Heide(Holst),54.193564,9.101029
8000156,Heidelberg Hbf,49.403563,8.675444
8002206,Geilenkirchen,50.961034,6.124521
8000159,Helmstedt,52.222086,11.010554
8000162,Herford,52.119609,8.663641
8000163,Tuttlingen,47.98058,8.798542
8010404,Berlin-Spandau,52.53447,13.19753
8010405,Berlin Wannsee,52.421053,13.179336
8010406,Berlin Zoologischer Garten,52.507278,13.331991
8000168,Uelzen,52.969782,10.553057
8000169,Hildesheim Hbf,52.160627,9.953494
8000170,Ulm Hbf,48.399432,9.982224
8000174,Viersen,51.254946,6.403897
8000176,Homburg(Saar)Hbf,49.328081,7.337031
8000177,Horb,48.441475,8.688982
8000181,Husum,54.472275,9.055022
8000182,Immendingen,47.936002,8.729532
8000183,Ingolstadt Hbf,48.744537,11.437335
8100539,Werfen,47.472599,13.195184
8000189,Kaiserslautern Hbf,49.43614,7.768711
8012478,Leipzig Messe,51.396148,12.389274
8000191,Karlsruhe Hbf,48.993511,8.402181
8000192,Wanne-Eickel Hbf,51.531256,7.165787
8000194,Kaufbeuren,47.875433,10.629492
8004043,Mittenwald,47.440031,11.265704
8000196,Warburg(Westf),51.492953,9.163846
8000197,Kempten(Allgäu)Hbf,47.711748,10.317611
8000199,Kiel Hbf,54.314982,10.131975
8000206,Koblenz Hbf,50.350927,7.588342
8000207,Köln Hbf,50.943029,6.958729
8004305,Neumarkt(Oberpf),49.27322,11.456985
8000211,Krefeld Hbf,51.325718,6.569883
8600276,Borup st,55.494897,11.97293
8000213,Kreiensen,51.851425,9.967796
8000225,Leer(Ostfriesl),53.231647,7.46528
8000226,Lehrte,52.376718,9.974601
8000228,Lichtenfels,50.14645,11.059473
8000230,Lindau Hbf,47.544342,9.680465
8000235,Ludwigsburg,48.891861,9.18542
8000236,Ludwigshafen(Rh)Hbf,49.477985,8.4334
8000237,Lübeck Hbf,53.867543,10.669818
8000238,Lüneburg,53.249652,10.419891
8000240,Mainz Hbf,50.001112,8.258722
8000244,Mannheim Hbf,49.479351,8.468917
8004343,Niebüll,54.789603,8.834571
8000249,Memmingen,47.985578,10.186854
8000250,Wiesbaden Hbf,50.070788,8.243728
8000252,Minden(Westf),52.290134,8.934729
8000253,Mönchengladbach Hbf,51.196579,6.44611
8000257,Worms Hbf,49.634937,8.356444
8000259,Mülheim(Ruhr)Hbf,51.431341,6.88651
8000260,Würzburg Hbf,49.801794,9.935777
8000261,München Hbf,48.140228,11.558338
8000262,München Ost,48.127437,11.604975
8000263,Münster(Westf)Hbf,51.956563,7.635716
8000266,Wuppertal Hbf,51.254361,7.149543
8000271,Neumünster,54.075752,9.979815
8000274,Neuss Hbf,51.204354,6.684522
8000275,Neustadt(Weinstr)Hbf,49.349556,8.140757
8006421,Wiesloch-Walldorf,49.291351,8.664145
8000279,Nienburg(Weser),52.645568,9.217754
5600025,Nove Zamky,47.994999,18.173959
8000283,Northeim(Han),51.703139,9.98662
8000284,Nürnberg Hbf,49.445615,11.082989
8000286,Oberhausen Hbf,51.474876,6.851587
2100001,Brest Central,52.100435,23.680679
8000290,Offenburg,48.476479,7.946724
8000291,Oldenburg(Oldb),53.144325,8.222711
8000294,Osnabrück Hbf,52.272848,8.061777
8000297,Paderborn Hbf,51.712982,8.740508
8000298,Passau Hbf,48.573634,13.450775
8000299,Pforzheim Hbf,48.894154,8.703095
2100012,Orscha Central,54.520834,30.374883
8000301,Plattling,48.779622,12.863941
8000302,Plochingen,48.713084,9.410807
8000306,Rastatt,48.86048,8.215619
8000307,Recklinghausen Hbf,51.616357,7.203487
8000309,Regensburg Hbf,49.011669,12.099615
8000310,Remagen,50.577213,7.229781
8500023,Liestal,47.484375,7.731352
8000312,Rendsburg,54.302262,9.671134
8700729,Lorraine,48.947406,6.169692
8000314,Reutlingen Hbf,48.496075,9.209116
8000316,Rheine,52.2763,7.434258
8000318,Rheydt Hbf,51.163031,6.439566
8000320,Rosenheim,47.85002,12.119202
8000322,Rottweil,48.165299,8.639298
8000323,Saarbrücken Hbf,49.241065,6.991018
7900014,Kranj,46.23901,14.348168
8000329,Schwäbisch Gmünd,48.801007,9.787796
8000331,Andernach,50.434545,7.404837
8000333,Hausach,48.284928,8.181666
5600081,Kuty,48.66189,17.047691
8000339,Mühlacker,48.953195,8.846104
8000349,Offenbach(Main)Hbf,50.099265,8.760743
8506206,Wil(CH),47.462343,9.04019
5501413,Vac,47.782727,19.133063
8004449,Norddeich,53.621581,7.160825
8506210,Gossau SG,47.411635,9.253504
7900003,Ljubljana,46.058686,14.51294
7900004,Zidani Most,46.085267,15.170708
8502119,Lenzburg,47.391301,8.170583
7900011,Pivka,45.67571,14.191144
7900012,Postojna,45.772928,14.221276
8000366,Villingen(Schwarzw),48.058022,8.465258
8000368,Wabern(Bz Kassel),51.103136,9.35804
7900017,Dobova,45.898804,15.654552
7900018,Sevnica,46.009461,15.301024
8070003,Frankfurt(M) Flughafen Fernbf,50.053169,8.57018
8070004,Frankfurt(M) Flughafen Regionalbf,50.051218,8.57125
5100009,Gdansk Glowny,54.355523,18.643807
8000377,Weinheim(Bergstr),49.553306,8.665349
8012666,Potsdam Hbf,52.391703,13.066782
7900029,Ilirska Bistrica,45.569358,14.236126
7900030,Krsko,45.956227,15.493286
8000385,Gunzenhausen,49.120448,10.755467
8004488,Nürtingen,48.628001,9.34265
7900042,Dobova(Gr),45.890561,15.680126
8012683,Prora,54.444984,13.564057
8000664,Augustfehn,53.220886,7.759659
8000403,Aachen Süd(Gr),50.731917,6.045407
8006552,Wolfsburg Hbf,52.429494,10.787783
8004506,Oberau,47.559273,11.13927
8002461,Gütersloh Hbf,51.906942,8.385074
7900080,Borovnica,45.92107,14.368259
2100149,Brest(Gr),52.098898,23.673856
8602553,Tinglev st,54.936172,9.258233
8506302,St. Gallen(CH),47.423276,9.369303
8002504,Haffkrug,54.054186,10.742684
8506314,St. Margrethen,47.453353,9.638413
8000459,Ainring,47.815034,12.964503
5600207,Bratislava hl.st.,48.158908,17.106463
8012763,Ribnitz-Damgarten West,54.239175,12.436962
8002042,Frankfurt(Main)West,50.118862,8.639334
8000483,Alfeld(Leine),51.981418,9.817775
8000337,Marburg(Lahn),50.819274,8.775017
8004585,Oberstdorf,47.411032,10.278095
8002548,Hamburg Dammtor,53.560751,9.989568
8002549,Hamburg Hbf,53.552732,10.006908
8400644,Venlo,51.364407,6.17184
8002553,Hamburg-Altona,53.552696,9.935174
8002554,Hamburg-Bergedorf,53.489835,10.206172
8601770,Odense st,55.401777,10.386001
8602623,Trekroner st,55.647812,12.130637
8010240,Naumburg(Saale)Hbf,51.163067,11.796984
8004610,Westerstede-Ocholt,53.202162,7.88647
8099508,Hannover-Wülfel,52.324347,9.788884
8100353,Flughafen Wien,48.120901,16.563074
8000522,Hude,53.109429,8.460952
8600623,Fredericia st,55.568087,9.738814
8300262,Roma Tiburtina,41.911072,12.531457
8006713,Leverkusen Mitte,51.03151,6.991657
8000571,Lippstadt,51.670688,8.348785
8010250,Neustrelitz Hbf,53.359257,13.074603
8502113,Aarau,47.391148,8.051323
8006730,Neu-Ulm,48.393041,10.004823
7900002,Lesce-Bled,46.360427,14.157632
8100366,Brixen im Thale,47.449227,12.260549
8103000,Wien Hbf,48.184923,16.375864
8602714,Valby(Koebenhavn),55.663795,12.514323
5403739,Breclav(Gr),48.712553,16.868401
2000058,Moskva Belorusskaja,55.776672,37.579809
8602722,Vamdrup st,55.428089,9.28645
5500003,Budapest-Keleti,47.500385,19.085069
5500006,Szob,47.820994,18.862056
5500008,Kelenföld,47.464356,19.020455
5500009,Tatabanya,47.584929,18.39361
5500016,Mosonmagyarovar,47.850353,17.266426
5500017,Hegyeshalom,47.913502,17.147022
8700436,Noisy-le-Sec,48.896509,2.458792
8800002,Bruxelles-Nord,50.860238,4.361458
8000635,Assmannshausen,49.985327,7.867359
2000004,Smolensk,54.79834,32.034462
8500010,Basel SBB,47.547075,7.589169
7800002,Opatija Matulji,45.364809,14.321775
8004751,Papenburg(Ems),53.089707,7.386705
2000021,Wjasma,55.19739,34.317551
8004760,Peine,52.318945,10.232142
8000667,Montabaur,50.444838,7.825334
8010268,Pasewalk,53.515355,13.988878
8000029,Bebra,50.969565,9.797783
5500080,Györ,47.681985,17.634795
8400051,Almelo,52.357284,6.654813
8101044,Kitzbühel Hahnenkamm,47.443384,12.389859
8300062,Milano Lambrate,45.485066,9.237225
8400055,Amersfoort,52.153642,5.373239
2000056,Moskva Kurskaja,55.757364,37.662276
8400058,Amsterdam Centraal,52.37919,4.899426
8400066,Apeldoorn,52.209429,5.967489
8002757,Heppenheim(Bergstr),49.641553,8.633374
8400071,Arnhem Centraal,51.98478,5.901004
8602825,Viby Sjaelland st,55.54485,12.027548
7800013,Rijeka,45.330083,14.430248
8000718,Bad Krozingen,47.919723,7.697633
8004815,Piding,47.759544,12.91153
8400080,Almere Centrum,52.375244,5.218768
7800020,Zagreb Glavni Kolod.,45.804453,15.978478
8010368,Weißenfels,51.204615,11.970925
8000732,Bad Oeynhausen,52.205393,8.79652
8100048,Zell am See,47.32052,12.796567
8000738,Bad Reichenhall-Kirchberg,47.718535,12.874
8000039,Bingen(Rhein) Hbf,49.968724,7.884258
8002806,Herzogenrath,50.870917,6.094488
8010103,Falkenberg(Elster),51.583618,13.247681
8000770,Bad Zwischenahn,53.182547,8.003123
7800067,Sapjane,45.478289,14.244198
8000774,Baden-Baden,48.790328,8.190827
8602887,Vojens st,55.248475,9.304914
8100055,Kitzbühel,47.454109,12.391045
7800076,Sapjane(Gr),45.505157,14.244216
8004885,Prien a Chiemsee,47.855513,12.346612
8602903,Vordingborg st,55.012517,11.899416
2000158,Osinovka(Gr),54.707073,31.002033
8000800,Norden,53.588195,7.218913
8300080,Casarsa,45.953216,12.840398
8011044,Anklam,53.8561,13.701825
8000049,Braunschweig Hbf,52.252218,10.540292
8011051,Apolda,51.030943,11.526139
8000050,Bremen Hbf,53.083477,8.813833
8000831,Bayerisch Gmain,47.720378,12.89507
7900043,Jesenice(Gr),46.481413,14.020331
8000737,Bad Reichenhall,47.731165,12.88182
8301897,Pioltello-Limito,45.485732,9.328259
8001763,Eltville,50.027558,8.121529
8010297,Riesa,51.309654,13.287737
8300090,Gemona del Friuli,46.27209,13.127576
8011102,Berlin Gesundbrunnen,52.548961,13.388515
8600929,Hedehusene st,55.648576,12.198182
8004965,Ravensburg,47.78448,9.606097
8005940,Übersee,47.822046,12.487338
8011113,Berlin Südkreuz,52.475042,13.365314
8100071,St.Michael in Obersteiermark,47.346625,15.009189
8000879,Bad Bentheim,52.309848,7.158541
8000880,Radolfzell,47.735875,8.968987
8000885,Berchtesgaden Hbf,47.626683,12.999058
8000891,Schlüchtern,50.341174,9.510038
8010304,Rostock Hbf,54.078242,12.131077
8400263,Groningen,53.210684,6.564273
8011160,Berlin Hbf,52.525589,13.369548
8000935,Bad Bevensen,53.078246,10.574137
8301993,Ronchi dei Leg. Nord,45.830612,13.505914
8301996,Redipuglia,45.853381,13.485841
8000943,Biberach(Riß),48.101844,9.793127
8013236,Warnemünde,54.176853,12.091273
8011191,Ostseebad Binz,54.40482,13.600508
8003001,Hornberg(Schwarzw),48.21189,8.232941
8400316,Hengelo,52.261854,6.793723
8509002,Landquart,46.967451,9.554059
5400001,Brno hl.n.,49.190537,16.612775
8400322,Hilversum,52.22667,5.1814
5400003,Decin hl.n.,50.773411,14.201248
8601031,Hoeje Taastrup st,55.648621,12.268801
8003016,Hünfeld,50.673272,9.762456
8302025,Romano,45.523972,9.753394
5400014,Praha hl.n.,50.083058,14.436037
5400019,Usti nad Labem hl.n.,50.659563,14.044728
5400022,Kolin(CZ),50.025437,15.214278
8003036,Ibbenbüren,52.276866,7.721482
8000997,Bischofswiesen,47.651889,12.960143
8003155,Venlo(Gr),51.340999,6.192578
8003065,Immenstadt,47.559201,10.214002
8601089,Horsens st,55.862789,9.835502
8300046,Milano Centrale,45.487143,9.204828
8300048,Brescia,45.532161,10.212869
8302103,Sesto Fiorentino,43.833433,11.191893
8003102,Itzehoe,53.92387,9.51029
8001055,Böblingen,48.687761,9.004126
8089124,Frankfurt(Oder)(Gr),52.321174,14.576404
8300069,Treviglio,45.515036,9.588532
8089126,Schöna(Gr),50.860058,14.22213
8300074,Carnia,46.373767,13.133033
8300076,Bressanone/Brixen,46.709892,11.649768
5101104,Gdansk Oliwa,54.40989,18.57174
8300084,Bolzano/Bozen,46.49638,11.358787
8300086,Conegliano,45.884664,12.299104
8300089,Fortezza/Franzensfeste,46.788718,11.61008
8001082,Bonn-Bad Godesberg,50.683924,7.159557
8001083,Bonn-Beuel,50.738479,7.127654
8300092,Brennero/Brenner,47.002338,11.505428
8300093,Venezia Mestre,45.481902,12.2319
8300094,Venezia Santa Lucia,45.441397,12.320462
8300095,Cervignano-Aquileia-Grado,45.823933,13.343704
8300096,Gorizia Centrale,45.933305,13.606935
8300098,Padova,45.417827,11.88062
8300100,Latisana-Lig.-Bibio.,45.777773,13.001188
8300101,Trento,46.072287,11.118901
8302177,S.Pietro in Casale,44.69798,11.40483
8509000,Chur,46.85344,9.528475
8300106,Desenzano del Garda/Sirmione,45.462665,10.536274
8300108,Pontebba,46.508407,13.311442
8000098,Essen Hbf,51.451351,7.014795
8300110,Pordenone,45.956353,12.653683
8300111,Portogruaro-Caorle,45.78091,12.831202
8300113,Rovereto,45.890956,11.033602
8300115,Udine,46.055783,13.242162
8300116,S. Donà di Piave-Jesolo,45.639762,12.559908
8300117,S.Giorgio di Nogaro,45.829236,13.2099
8300118,Sacile,45.948263,12.498466
8300120,Verona Porta Nuova,45.428659,10.982741
8300124,Peschiera del Garda,45.437576,10.701181
8005213,Rüdesheim(Rhein),49.976886,7.915415
8300126,Vicenza,45.541096,11.540774
5400161,Pardubice hl.n.,50.031738,15.756211
8300130,Treviso Centrale,45.6597,12.245132
8500026,Sissach,47.462747,7.812021
8003184,Karlsruhe-Durlach,49.00233,8.462822
8300148,Chiusi-Chianciano Terme,43.002471,11.9579
8300151,Firenze S.M.N.,43.77681,11.247806
8507000,Bern,46.949113,7.438483
2100003,Minsk-Passajirskii,53.890736,27.550643
8003200,Kassel-Wilhelmshöhe,51.313115,9.446898
5400201,Praha-Holesovice,50.110214,14.44001
5400202,Breclav,48.753904,16.893239
8300177,Terontola-Cortona,43.2104,12.007862
8003218,Kehl,48.576655,7.806556
8300179,Arezzo,43.461073,11.875388
8300180,Firenze Campo di Marte,43.777574,11.27659
8003866,Marienhafe,53.520892,7.270727
8013470,Bernau(b Berlin),52.675834,13.592292
8300209,Ferrara,44.84312,11.603833
8010355,Velgast,54.277317,12.803138
5103284,Swiebodzin,52.245143,15.539535
8300217,Bologna Centrale,44.506141,11.343406
8300221,Rimini,44.06424,12.574012
8300252,Attigliano-Bomarzo,42.517476,12.295894
8300224,Orte,42.437606,12.409069
8300231,Isola della Scala,45.269316,11.013466
8300232,Monselice,45.246196,11.747813
8300233,Nogara,45.180035,11.071024
8300238,Rovigo,45.076983,11.781064
8302294,Ugovizza,46.502843,13.495037
8503000,Zürich HB,47.378186,8.539203
8507100,Thun,46.754856,7.629576
8601309,Koebenhavn H,55.672721,12.564618
8601312,Koege st,55.457501,12.186469
8300257,Orvieto,42.723931,12.126753
8601318,Kolding st,55.490842,9.481525
8300263,Roma Termini,41.900492,12.50279
8503016,Zürich Flughafen,47.450279,8.562333
8004903,Puttgarden,54.500366,11.226717
8400621,Utrecht Centraal,52.089396,5.109864
8005362,Schleswig,54.499458,9.538139
8001274,Fehmarn-Burg,54.44359,11.188981
5101307,Gdansk Wrzeszcz,54.381861,18.605432
8601343,Korsoer st,55.3572,11.135126
8000128,Göttingen,51.536811,9.926068
8003330,Köln/Bonn Flughafen,50.8789,7.119303
8303915,Tarvisio Boscoverde,46.506358,13.607214
8800004,Bruxelles Midi,50.835374,4.335695
8800012,Liège-Guillemins,50.624361,5.56648
8400173,Deventer,52.257432,6.160505
8003368,Köln Messe/Deutz,50.940871,6.975
8005424,Schorndorf,48.807147,9.526309
5500728,Budapest-Nyugati,47.510705,19.057464
8010036,Berlin-Lichtenberg,52.509894,13.496925
8601404,Langeskov st,55.344903,10.598596
8300170,Prato Centrale,43.879063,11.109309
8002187,Garmisch-Partenkirchen,47.49145,11.097012
8003400,Konstanz,47.658757,9.177312
8003411,Kornwestheim Pbf,48.862215,9.179964
8010382,Wittenberge,53.003114,11.76287
8400747,Zwolle,52.505624,6.089904
8300521,Terme Euganee-Abano-Montegrotto,45.327378,11.796436
8003487,Hannover Messe/Laatzen,52.316895,9.792866
8001443,Diepholz,52.604775,8.380337
8200100,Luxembourg,49.599717,6.134391
2100013,Baranovichi Centralnye,53.142608,26.027079
8003494,Lahr(Schwarzw),48.340436,7.834737
8601512,Lunderskov st,55.480118,9.30379
8010396,Züssow,53.973877,13.548191
8010324,Schwerin Hbf,53.634741,11.407455
8005556,Siegburg/Bonn,50.793916,7.203029
8005561,Sierksdorf,54.068524,10.769104
8003515,Landstuhl,49.416283,7.565932
8100514,Wien Meidling,48.17445,16.333085
8300497,Firenze Rifredi,43.800137,11.236408
8010403,Berlin-Charlottenburg,52.504725,13.303522
8003545,Langenhagen Mitte,52.440281,9.725429
8500218,Olten,47.352009,7.907621
8509411,Sargans,47.044794,9.446269
8005609,Sonthofen,47.51324,10.272342
5500913,Nagymaros-Visegrad,47.790889,18.958798
8300530,Chiari,45.540053,9.926572
8300533,Rovato,45.552099,10.001362
8300535,Cormons,45.957566,13.461517
8601593,Middelfart st,55.501621,9.734661
8002218,Geislingen(Steige),48.619353,9.841938
